City,State,Region,Latitude,Longitude
Dover,Delaware,Northeast,39.1582,-75.5244
New York,New York,Northeast,40.7128,-74.0060
Chicago,Illinois,Midwest,41.8781,-87.6298
Los Angeles,California,West,34.0522,-118.2437
Houston,Texas,South,29.7604,-95.3698
Miami,Florida,South,25.7617,-80.1918
Seattle,Washington,West,47.6062,-122.3321
Rasinari,Romania,Transylvania,45.7107,24.0683
